raw_filename,proposed_station_id,display_name,city,latitude,longitude,source_authority,metadata_verification_status,geospatial_eligible,onboarding_status,notes,metadata_source_url
btm_layout_bengaluru_cpcb_15m.csv,cpcb_btmlayout,BTM Layout,bengaluru,12.9135,77.5951,CPCB,verified,True,pending,OpenAQ location_id=5548; coordinates match Bengaluru bbox; PM2.5 available; CPCB authority,https://openaq.org/#/locations/5548
bwssb_kadabesanahalli_bengaluru_cpcb_15m.csv,cpcb_kadabesanahalli,BWSSB Kadabesanahalli,bengaluru,12.9352,77.6814,CPCB,verified,True,pending,OpenAQ location_id=5547; coordinates match Bengaluru bbox; PM2.5 available; CPCB authority,https://openaq.org/#/locations/5547
city_railway_station_bengaluru_kspcb_15m.csv,cpcb_city_railway,City Railway Station,bengaluru,12.9757,77.5661,KSPCB,verified,True,pending,OpenAQ location_id=5574; coordinates match Bengaluru bbox; PM10 only; KSPCB authority,https://openaq.org/#/locations/5574
kasturi_nagar_bengaluru_kspcb_15m.csv,cpcb_kasturinagar,Kasturi Nagar,bengaluru,13.0039,77.6642,KSPCB,verified,True,pending,OpenAQ location_id=3409388; coordinates match Bengaluru bbox; PM2.5 available; KSPCB authority,https://openaq.org/#/locations/3409388
rvce_mailasandra_bengaluru_kspcb_15m.csv,cpcb_rvce_mailasandra,RVCE-Mailasandra,bengaluru,12.9214,77.5025,KSPCB,verified,True,pending,OpenAQ location_id=3409385; coordinates match Bengaluru bbox; PM2.5 available; KSPCB authority,https://openaq.org/#/locations/3409385
sanegurava_halli_bengaluru_kspcb_15m.csv,cpcb_saneguravahalli,Sanegurava Halli,bengaluru,12.9903,77.5431,KSPCB,verified,True,pending,OpenAQ location_id=5644; coordinates match Bengaluru bbox; PM10 only; KSPCB authority,https://openaq.org/#/locations/5644
